,Unnamed: 0,X,Y,OBJECTID,stop_id,stop_code,stop_name,stop_lat,stop_lon,Block
0,0,-78.5077056885633,38.03654479993958,2916,1,10472,Emmet St at Central Grounds Garage,38.0365448,-78.50770569,510030109032003
1,1,-78.5070648199774,38.03832626416571,2917,2,10660,Emmet St at Snyder Tennis Courts,38.03832626,-78.50706482,510030109032003
2,2,-78.51635742082306,38.029071807113546,2918,3,10687,Alderman Road at Stadium Rd northbound,38.02907181,-78.51635742,510030109031003
3,3,-78.4801406867238,38.02955627524532,2919,4,11015,East Water St at 3rd St SE,38.02955627,-78.48014069,515400010001043
4,4,-78.48426818857985,38.03097534108692,2920,5,11036,West Water St at Omni,38.03097534,-78.48426819,515400010001020
5,5,-78.48487091015939,38.031635283926576,2921,6,11043,Omni Hotel at Ridge McIntire Rd,38.03163528,-78.48487091,515400010001020
6,6,-78.4866943365822,38.03070449876137,2922,7,11058,West Main Street at 4th St,38.0307045,-78.48669434,515400010001052
7,7,-78.48680114688773,38.03062820467712,2923,8,11062,West Main Street at 4th Street NW,38.0306282,-78.48680115,515400010001051
8,8,-78.49057006805407,38.03169631973135,2924,9,11091,West Main Street at 8th Street NW (westbound),38.03169632,-78.49057007,515400010001054
9,9,-78.49251556318542,38.031990051923735,2925,10,11101,West Main Street at the Flats,38.03199005,-78.49251556,515400002021032
10,10,-78.4957427972548,38.03289032013504,2926,11,11129,West Main Street at 11th Street NW (westbound),38.03289032,-78.4957428,515400002021028
11,11,-78.49568176352501,38.032669066756185,2927,12,11138,West Main Street at 11th Street SW (eastbound),38.03266907,-78.49568176,515400002021029
12,12,-78.50408935587276,38.032169342406,2928,13,11155,JPA at Cabell Hall,38.03216934,-78.50408936,510030109032007
13,13,-78.50981140210881,38.02882003769764,2929,14,11164,JPA at Montebello Circle,38.02882004,-78.5098114,515400006001017
14,14,-78.51158905099057,38.027629852224216,2930,15,11172,JPA at Shamrock Road,38.02762985,-78.51158905,515400006002000
15,15,-78.49250793397648,38.03220748919603,2931,16,11186,West Main Street opposite 9th Street SW,38.03220749,-78.49250793,515400002021026
16,16,-78.50060272113359,38.032501220896016,2932,17,11193,JPA at UVA Hospital,38.03250122,-78.50060272,510030109032009
17,17,-78.51455688437588,38.02612686202932,2933,18,11210,JPA at Maury Avenue,38.02612686,-78.51455688,515400006002002
18,18,-78.51580810453687,38.027004242250364,2934,19,11223,Maury Avenue at Clark Court,38.02700424,-78.51580811,515400006002002
19,19,-78.5140914910104,38.033824921335636,2935,20,11234,Alderman Road at AFC,38.03382492,-78.51409149,510030109031001
20,20,-78.49984741278081,38.03408050543764,2936,21,11247,University Ave at Women's Center,38.03408051,-78.49984741,510030109032009
21,21,-78.50284576321302,38.036510466899365,2937,22,11281,University Ave at Rotunda,38.03651047,-78.50284576,510030109032007
22,22,-78.4805450429647,38.03129196110046,2938,23,11299,East Market St at 2nd St NE,38.03129196,-78.48054504,515400010001030
23,23,-78.47795868001084,38.03048324627731,2939,24,11309,East Market St at 5th St NE,38.03048325,-78.47795868,515400010001040
24,24,-78.47398376542223,38.02904891980304,2940,25,11321,E Market St. at 10th St.,38.02904892,-78.47398376,515400003021030
25,25,-78.51351928711459,38.01876830975589,2941,26,11350,JPA at Old Lynchburg Road southbound,38.01876831,-78.51351929,515400005023013
26,26,-78.51269531238981,38.01756668037575,2942,27,11366,JPA at Monte Vista Avenue,38.01756668,-78.51269531,515400005024005
27,27,-78.51145172102828,38.015979766260095,2943,28,11378,JPA at Azalea Drive southbound,38.01597977,-78.51145172,515400005025006
28,28,-78.50785827679539,38.0158004768549,2944,29,11397,Harris Road at Willard Drive Eastbound,38.01580048,-78.50785828,515400005025008
29,29,-78.5145034784193,38.02069854790553,2945,30,11439,Cleveland Avenue at JPA Westbound,38.02069855,-78.51450348,515400005022003
30,30,-78.48336792029106,38.03270721438573,2946,31,11494,West Market St at Old Preston,38.03270721,-78.48336792,515400010001020
31,31,-78.47792053243214,38.02640533438986,2947,32,11500,Avon St at Garrett St southbound,38.02640533,-78.47792053,515400004011001
32,32,-78.49662780715491,38.02134704506464,2948,33,11563,Bailey Road at Prospect Avenue,38.02134705,-78.49662781,515400005011011
33,33,-78.49481201159419,38.02393722609765,2949,34,11571,Blue Ridge Commons,38.02393723,-78.49481201,515400005011012
34,34,-78.49416351316191,38.028682708823865,2950,35,11585,Cherry Ave at Cherry Avenue Shopping Ctr,38.02868271,-78.49416351,515400005011008
35,35,-78.50327301095278,38.03198623583598,2951,36,11690,JPA & Brandon Ave,38.03198624,-78.50327301,515400006001005
36,36,-78.51168060347737,38.034175873455546,2952,37,11782,McCormick Road at Chemistry Building,38.03417587,-78.51168059999998,510030109031001
37,37,-78.50601959135476,38.034324645264796,2953,38,11802,McCormick Road at Garrett Hall,38.03432465,-78.50601959,510030109032007
38,38,-78.49223327689184,38.04147338851798,2954,39,11833,Preston Avenue at Madison Avenue (southbound),38.04147339,-78.49223328,515400002012003
39,39,-78.50818634045038,38.031265258166215,2955,40,11846,JPA at Woodrow St,38.03126526,-78.50818634,515400006001015
40,40,-78.50469207790516,38.03617858886899,2956,41,11908,McCormick Road at UVA Chapel,38.03617859,-78.50469208,510030109032007
41,41,-78.507377623836,38.03373336819878,2957,42,11920,McCormick Road at Clark Hall (night stop),38.03373337,-78.50737762,510030109032007
42,42,-78.51318359350148,38.03480911313681,2958,43,11931,McCormick Road at Gilmer Hall (night stop),38.03480911,-78.51318359,510030109031001
43,43,-78.48011779825666,38.02293777503496,2959,44,12047,Avon Street at Blenheim Avenue (northbound),38.02293777,-78.4801178,515400004022014
44,44,-78.48087310712067,38.02188491750528,2960,45,12052,Avon Street at Montrose Avenue northbound,38.02188492,-78.48087311,515400004022020
45,45,-78.4854049683546,38.02367401150321,2961,46,12068,1st St at Elliott Ave,38.02367401,-78.48540497,515400004011004
46,46,-78.47784423829346,38.026157379162655,2962,47,12075,Avon Street at Hinton Ave northbound,38.02615738,-78.47784424,515400004022001
47,47,-78.48758697476954,38.02465057382525,2963,48,12081,Elliott Avenue at Burnet Street,38.02465057,-78.48758698,515400004011016
48,48,-78.49066925134464,38.02701568570291,2964,49,12113,Cherry Avenue at 6th Street SW,38.02701569,-78.49066925,515400005011011
49,49,-78.5042114250697,38.05099487285214,2965,50,12178,Millmont Street behind US Post Office,38.05099487,-78.50421143,515400007003011
50,50,-78.50167846649478,38.05336380028789,2966,51,12184,Millmont Street behind CVS,38.0533638,-78.50167847,515400007003009
51,51,-78.45871734669362,38.024227142701704,2967,52,12412,Chesapeake Street at Riverview Street Westbound,38.02422714,-78.45871735,515400003022005
52,52,-78.47433471782756,38.02182769787523,2968,53,12431,Monticello Avenue at Tufton Avenue,38.0218277,-78.47433472,515400004022016
53,53,-78.46479797456534,38.03017807078765,2969,54,12465,Fairway Avenue at Meade Avenue,38.03017807,-78.46479797,515400003022003
54,54,-78.46569824174381,38.029140473133545,2970,55,12483,Meade Avenue at Caroline Avenue,38.02914047,-78.46569824,515400003021025
55,55,-78.47442627033075,38.021667479835095,2971,56,12505,Monticello Avenue at Castalia Street,38.02166748,-78.47442627,515400004022034
56,56,-78.46244812096455,38.02433013985456,2972,57,12580,East Market Street at 18th Street NE Eastbound,38.02433014,-78.46244812,515400003022017
57,57,-78.46241760217235,38.02672958368869,2973,58,12624,Fairway Avenue at Short 18th Street,38.02672958,-78.4624176,515400003022006
58,58,-78.4635009758115,38.02907562183121,2974,59,12648,Fairway Avenue at Arbor Circle,38.02907562,-78.46350098,515400003022005
59,59,-78.47504424955844,38.01858520470153,2975,60,12676,Monticello Avenue at Elliott Avenue (southbound),38.01858521,-78.47504425,515400004022026
60,60,-78.46059417738209,38.04257965040394,2976,61,12703,Locust Avenue at Smith Street,38.04257965,-78.46059418,515400009001016
61,61,-78.46712493918083,38.042915344632505,2977,62,12726,North Ave at Cottonwood Rd,38.04291534,-78.46712494,515400009002018
62,62,-78.47053527858048,38.032958984162974,2978,63,12761,Locust Avenue at Sycamore Street Southbound,38.03295898,-78.47053528,515400010003011
63,63,-78.46879577581653,38.03548431342689,2979,64,12774,Locust Avenue at Hazel Street Southbound,38.03548431,-78.46879578,515400010003002
64,64,-78.48814392173264,38.00517654405972,2980,65,12800,PVCC Dickinson Building,38.00517654,-78.48814392,510030113032006
65,65,-78.46972656148614,38.04375076374896,2981,66,12871,North Avenue at Park Street,38.04375076,-78.46972656,515400009002018
66,66,-78.4649810794499,38.042762757082585,2982,67,12885,North Ave at Holmes Ave,38.04276276,-78.46498108,515400009002018
67,67,-78.46520233151912,38.042068482081056,2983,68,12902,Sheridan Ave at Calhoun St,38.04206848,-78.46520233,515400009002018
68,68,-78.46352386554278,38.040489196792045,2984,69,12918,Calhoun Street at Locust Avenue,38.0404892,-78.46352386,515400009001011
69,69,-78.52402496258622,37.99908828743159,2985,70,12939,Hickory Street at Quest Court,37.99908829,-78.52402496,510030113022018
70,70,-78.46179199325695,38.03934097367594,2986,71,12941,St Clair Ave at Calhoun St,38.03934097,-78.46179199,515400009001016
71,71,-78.49455261127629,38.02081298796301,2987,72,12956,5th Street SW at Bailey Road (southbound),38.02081299,-78.49455261,515400005011011
72,72,-78.45840454017659,38.04225158680399,2988,73,12960,Peartree Lane at Saint Clair Avenue Southbound,38.04225159,-78.45840454,515400009001010
73,73,-78.48870086732401,38.02619934062029,2989,74,12987,Ridge Street at Cherry Avenue Southbound,38.02619934,-78.48870087,515400004011011
74,74,-78.48645019474738,38.02807235696359,2990,75,12994,Ridge Street at Dice Street (southbound),38.02807236,-78.4864502,515400004011008
75,75,-78.4892807011564,38.037822723800105,2991,76,13001,Preston Ave at Booker St.,38.03782272,-78.48928070000002,515400002012010
76,76,-78.48657989564245,38.0796661376075,2992,77,13017,Four Seasons Drive at ACAC,38.07966614,-78.48657990000002,510030107001000
77,77,-78.48266601587093,38.086696625608866,2993,78,13040,Rio Road W at Charlottesville Rehab eastbound,38.08669662,-78.48266602,510030107001000
78,78,-78.48588561987278,38.07374954230141,2994,79,13055,Commonwealth Drive at Westfield Road (northbound),38.07374954,-78.48588562,510030107002022
79,79,-78.48961639465477,38.07248306345423,2995,80,13064,Commonwealth Drive at Greenbrier Drive (NB),38.07248306,-78.48961639,510030107003012
80,80,-78.49070739713966,38.07142639236634,2996,81,13072,Commonwealth Drive at Peyton Drive,38.07142639,-78.4907074,510030107003011
81,81,-78.48352050813907,38.07767105168883,2997,82,13086,Four Seasons Drive at Woodlake Drive (northbound),38.07767105,-78.48352051,510030107001000
82,82,-78.48742675849884,38.08253860484478,2998,83,13093,Four Seasons Drive at Tennis Drive (northbound),38.0825386,-78.48742676,510030107001000
83,83,-78.49934387203777,38.07095718443397,2999,84,13119,Georgetown Road at Hydraulic Road (northbound),38.07095718,-78.49934387,510030108002000
84,84,-78.4936065684234,38.069137572684866,3000,85,13126,Commonwealth Drive at Northwest Drive (northbound),38.06913757,-78.49360657,510030107003006
85,85,-78.5069961554054,38.06255340567452,3001,86,13142,Georgetown Rd at Hessian Hills Way northbound,38.06255341,-78.50699615,510030108003005
86,86,-78.50434875575415,38.04880142218345,3002,87,13157,BRSC at Arlington Blvd Northbound,38.04880142,-78.50434875,515400007003012
87,87,-78.5013427723486,38.05527496295589,3003,88,13161,Barracks Road at Cedars Court (northbound),38.05527496,-78.50134277,515400008004033
88,88,-78.49527740448106,38.067646027087115,3004,89,13174,Commonwealth Drive at Hydraulic Road (northbound),38.06764603,-78.4952774,510030107003005
89,89,-78.50241088808366,38.06816864045649,3005,90,13188,Georgetown Road at Court Place,38.06816864,-78.50241089,510030108002004
90,90,-78.50431060831215,38.06507110658042,3006,91,13190,Georgetown Road at Inglewood Drive northbound,38.06507111,-78.50431061,510030108003003
91,91,-78.4725112908998,38.09293747016333,3007,92,13208,Berkmar Drive at SPCA,38.09293747,-78.47251129,510030108001001
92,92,-78.50567626987402,38.05855941847422,3008,93,13220,Barracks Road at Bennington Road,38.05855942,-78.50567627,510030108003006
93,93,-78.47350311220627,38.09104919513439,3009,94,13231,Berkmar Drive at UVA Credit Union,38.09104919,-78.47350311,510030108001004
94,94,-78.50434875579596,38.048988342229315,3010,95,13265,BRSC at Arlington Blvd Southbound,38.04898834,-78.50434875,515400007003011
95,95,-78.47232818545909,38.09283447283251,3011,96,13277,Berkmar Drive opposite SPCA,38.09283447,-78.47232819,510030108001004
96,96,-78.46639251676555,38.09832000650041,3012,97,13283,Sam's Club,38.09832001,-78.46639252,510030108001004
97,97,-78.46713256917727,38.09649658274672,3013,98,13296,Walmart,38.09649658,-78.46713257,510030108001004
98,98,-78.47525787437283,38.08325195360503,3014,99,13306,Rio Rd W at Firestone Pl eastbound,38.08325195,-78.47525787,510030107001008
99,99,-78.47796630875641,38.08536529554663,3015,100,13310,Rio Rd W at Berkmar Dr Eastbound,38.0853653,-78.47796631,510030107001003
100,100,-78.46949005120538,38.031906127214896,3016,101,13685,East High Street at Grove Avenue (westbound),38.03190613,-78.46949005,515400003021021
101,101,-78.46437835665905,38.03207397395203,3017,102,13692,East High Street at Stewart Street (eastbound),38.03207397,-78.46437836,515400003021024
102,102,-78.46936798188526,38.03179931641459,3018,103,13721,East High Street at Grove Avenue (eastbound),38.03179932,-78.46936798,515400003021026
103,103,-78.44279479901421,38.028560638128155,3019,104,13784,Abbey Road at Division of Motor Vehicles,38.02856064,-78.4427948,510030105003000
104,104,-78.48651123067384,38.03884887778347,3020,105,13807,Rose Hill Drive at Henry Avenue (northbound),38.03884888,-78.48651123,515400002012018
105,105,-78.48647308361731,38.03916168206187,3021,106,13811,Rose Hill Drive at Henry Avenue (southbound),38.03916168,-78.48647308,515400002012001
106,106,-78.48818206842262,38.03755187982263,3022,107,13824,Rose Hill Drive at Dale Avenue (southbound),38.03755188,-78.48818207,515400002012010
107,107,-78.48352813648904,38.04559707679453,3023,108,13853,Rose Hill Drive at Rugby Ave Northbound,38.04559708,-78.48352814,515400007001008
108,108,-78.48410034154622,38.04275894155839,3024,109,13882,Rose Hill Drive at Health Department (southbound),38.04275894,-78.48410034,515400002011007
109,109,-78.4389648430203,38.027782439844735,3025,110,13895,Social Security Administration,38.02778244,-78.43896484,510030105002030
110,110,-78.44062042317776,38.02284240772143,3026,111,13914,Martha Jefferson Outpatient Center,38.02284241,-78.44062042,510030105003017
111,111,-78.48449706933954,38.051063537463534,3027,112,13933,Del Mar Drive at Oakleaf Lane northbound,38.05106354,-78.48449707,515400007001007
112,112,-78.48391723607502,38.042770384925156,3028,113,13967,Rose Hill Drive at Health Department (northbound),38.04277039,-78.48391724,515400002011008
113,113,-78.48799896290002,38.03749847447817,3029,114,13979,Rose Hill Drive at Dale Avenue (northbound),38.03749847,-78.48799896,515400002012016
114,114,-78.48402404892845,38.04127502470635,3030,115,13980,Rose Hill Drive at Madison Avenue,38.04127502,-78.48402405,515400002012000
115,115,-78.49192047148509,38.038112639760605,3031,116,13998,10th Street at Grady Avenue Southbound,38.03811264,-78.49192047,515400002021003
116,116,-78.4915466312449,38.02234649700194,3032,117,14007,Ridge St at Hartman's Mill Rd southbound,38.02234650000001,-78.49154663,515400004012010
117,117,-78.49208831719831,38.04167175373119,3033,118,14024,Preston Avenue at Madison Avenue (northbound),38.04167175,-78.49208832,515400002012001
118,118,-78.49412536699526,38.048576355456134,3034,119,14030,Barracks Rd opposite Howard Dr,38.04857636,-78.49412537,515400007002017
119,119,-78.49388122486597,38.019443512346,3035,120,14076,Brookwood Dr at Ridge St,38.01944351,-78.49388123,515400004012006
120,120,-78.4572372439413,38.03134536790783,3036,121,14095,Pantops Shopping Center at Food Lion,38.03134537,-78.45723724,510030105003001
121,121,-78.49155425938862,38.03969192510342,3037,122,14133,Preston Ave at Washington Park northbound,38.03969192,-78.49155426,515400002012001
122,122,-78.46533966098445,38.03195190424756,3038,123,14167,East High Street at Stewart Street (westbound),38.0319519,-78.46533966,515400003021017
123,123,-78.49812316994834,38.051685332754495,3039,124,14180,Barracks Road at Hessian Road,38.05168533,-78.49812317,515400007002013
124,124,-78.48988342250755,38.02432251000607,3040,125,14216,Ridge St at Barksdale St northbound,38.02432251,-78.48988342,515400004011016
125,125,-78.4809188844837,38.02523803764045,3041,126,14228,Monticello Avenue at 6th Street SE Eastbound,38.02523804,-78.48091888,515400004011004
126,126,-78.48210907031864,38.02660369934202,3042,127,14237,Monticello Avenue at 2nd Street SE Eastbound,38.0266037,-78.48210907,515400004011004
127,127,-78.48536682077729,38.0350456229592,3043,128,14244,Preston Avenue at Harris Street (westbound),38.03504562,-78.48536682,515400010002023
128,128,-78.48841857889238,38.03678512634009,3044,129,14271,Preston Ave at 8th St southbound,38.03678513,-78.48841858,515400002021015
129,129,-78.46263122649823,38.03289794880196,3045,130,14285,East High Street at Hazel Street Westbound,38.03289795,-78.46263123,515400003021016
130,130,-78.48565673919131,38.023517609368895,3046,131,14292,1st Street South at Elliott Avenue,38.02351761,-78.48565674,515400004011015
131,131,-78.48605346784709,38.0351715090946,3047,132,14325,Preston Avenue at Harris Street (eastbound),38.03517151,-78.48605347,515400010001014
132,132,-78.49163055414046,38.03959274218066,3048,133,14339,Preston Avenue at Washington Park southbound,38.03959274,-78.49163055,515400002012014
133,133,-78.48557281540634,38.063694000450724,3049,134,14373,Marshall's at Seminole Square Shopping Center,38.063694,-78.48557281,515400008004001
134,134,-78.50150298970895,38.05515670774969,3050,135,14387,Barracks Road at Cedars Court (southbound),38.05515671,-78.50150299,515400007003003
135,135,-78.49320221044556,38.046718597029155,3051,136,14394,Preston Ave at Rugby Avenue southbound,38.0467186,-78.49320221,515400007002013
136,136,-78.50659179589655,38.05902099679832,3052,137,14413,Barracks Road at Surrey Road,38.059021,-78.5065918,510030108005026
137,137,-78.49687194813326,38.06795883144796,3053,138,14445,Hydraulic Road at Turtle Creek Road northbound,38.06795883,-78.49687195,510030107003000
138,138,-78.49982452438282,38.07067489565172,3054,139,14450,Georgetown Road at Hydraulic Road (southbound),38.0706749,-78.49982452,510030108001024
139,139,-78.49539184646763,38.06770324691094,3055,140,14466,Commonwealth Drive at Hydraulic Road (Southbound),38.06770325,-78.49539185,510030107003000
140,140,-78.49367523088452,38.069252013847155,3056,141,14478,Commonwealth Drive at Northwest Drive (southbound),38.06925201,-78.49367523,510030107003000
141,141,-78.49169158906906,38.07075881999624,3057,142,14484,Commonwealth Drive at Trophy Chase Apartments,38.07075882,-78.49169159,510030107003000
142,142,-78.48975372259773,38.07253646854643,3058,143,14497,Commonwealth Drive at Greenbrier Drive (SB),38.07253647,-78.48975372,510030107003000
143,143,-78.48596954288541,38.07383346487098,3059,144,14506,Commonwealth Drive at Westfield Road (southbound),38.07383347,-78.48596954,510030107002001
144,144,-78.48276519765581,38.076522826996076,3060,145,14510,Commonwealth Drive at Commonwealth Circle,38.07652283,-78.4827652,510030107002000
145,145,-78.50274658237744,38.02434158321219,3061,146,14523,Cherry Ave at Rock Creek Rd Northbound,38.02434158,-78.50274658,515400005013002
146,146,-78.50087738057431,38.02598953225662,3062,147,14534,Cherry Avenue at Hanover Street (eastbound),38.02598953,-78.50087738,515400005012010
147,147,-78.49684143159958,38.02845382647673,3063,148,14547,Cherry Avenue at 10th Street SW eastbound,38.02845383,-78.49684143,515400005012013
148,148,-78.48661804178529,38.07954406769381,3064,149,14568,Four Seasons Drive opposite ACAC,38.07954407,-78.48661804,510030107002010
149,149,-78.48429107698891,38.078056335643616,3065,150,14575,Four Seasons Drive at Woodlake Drive (southbound),38.07805634,-78.48429108,510030107002000
150,150,-78.47332763593877,38.091743468983054,3066,151,14612,Berkmar Drive at Loupe Terrace,38.09174347,-78.47332764,510030108001001
151,151,-78.5029983517282,38.06792831342046,3067,152,14654,Georgetown Rd at Biltmore Dr,38.06792831,-78.50299835,510030108001024
152,152,-78.4875640864895,38.082550049182494,3068,153,14677,Four Seasons Drive at Tennis Drive (southbound),38.08255005,-78.48756409,510030107002000
153,153,-78.48368072428566,38.00754928520278,3069,154,14926,PVCC Main Building,38.00754929,-78.48368073,510030113032006
154,154,-78.47341156012313,38.08129882827275,3070,155,14935,Rio Rd at Albemarle Square,38.08129883,-78.47341156,510030106012028
155,155,-78.48323822020932,38.055820464375095,3071,156,15049,Grove Road at Meadowbrook Heights (eastbound),38.05582047,-78.48323822,515400008003009
156,156,-78.43996429541437,38.02164077818194,3072,157,15054,Veterans Administration at Peter Jefferson Parkway,38.02164078,-78.43996429,510030105003012
157,157,-78.47238159258109,38.08668899611745,3073,158,15110,Rio Hill Shopping Center at Subway,38.086689,-78.47238159,510030108001005
158,158,-78.50802612408661,38.06175613422778,3074,159,15152,Georgetown Road at Hessian Hills Ridge (SB),38.06175613,-78.50802612,510030108004001
159,159,-78.49301910330506,38.043849944307254,3075,160,15217,Preston Avenue at Cabell Avenue (southbound),38.04384995,-78.4930191,515400002013006
160,160,-78.49282836945619,38.04357910238142,3076,161,15219,Preston Avenue at Cabell Avenue (northbound),38.0435791,-78.49282837,515400002011005
161,161,-78.50634002684737,38.009788513070156,3077,162,15246,5th Street Ext at Moores Creek (northbound),38.00978851,-78.50634003,510030113022001
162,162,-78.50489807229555,38.010841369264895,3078,163,15255,5th Street Ext at Moores Creek (southbound),38.01084137,-78.50489807,515400005025002
163,163,-78.47308349590277,38.02302932735426,3079,164,15261,Bainbridge St at Monticello Rd,38.02302933,-78.4730835,515400004021010
164,164,-78.50958252050647,38.02172851509633,3080,165,15264,Cherry Avenue at Highland Avenue,38.02172852,-78.50958252,515400005022007
165,165,-78.50678253199702,38.02377700792085,3081,166,15272,Cherry Avenue at Shamrock Road (westbound),38.02377701,-78.50678253,515400005022007
166,166,-78.47016143761371,38.02271652230245,3082,167,15737,Carlton Ave at Carlton Rd,38.02271652,-78.47016144,515400004021011
167,167,-78.4748229984166,38.02420806806789,3083,168,15759,Hinton Ave at Meridian St,38.02420807,-78.474823,515400004022005
168,168,-78.5021057136812,38.0124549863336,3084,169,15785,5th Street at Harris Road northbound,38.01245499,-78.50210571,515400004012014
169,169,-78.4944381715362,38.02067947382717,3085,170,15792,5th Street SW at Bailey Road (northbound),38.02067947,-78.49443817,515400004012010
170,170,-78.48842620761971,38.02602386405847,3086,171,15802,Ridge St at Elliott Ave,38.02602386,-78.48842621,515400004011012
171,171,-78.48632049607636,38.028072357616246,3087,172,15818,Ridge Street at Dice Street (northbound),38.02807236,-78.48632049999998,515400004011013
172,172,-78.51935577451381,38.00540924004337,3088,173,15841,5th Street Ext at County Office Building,38.00540924,-78.51935577,510030113022006
173,173,-78.4771194467791,38.01833724974278,3089,174,15860,1001 Altavista Ave,38.01833725,-78.47711945,515400004022029
174,174,-78.48027038481048,38.01978683507893,3090,175,15873,Altavista Ave at Rialto St,38.01978683,-78.48027039,515400004022033
175,175,-78.48168945313381,38.01837158257136,3091,176,15887,Belmont Park,38.01837158,-78.48168945,515400004024002
176,176,-78.4910049436563,38.027378081496494,3092,177,15894,Cherry Avenue at 6th Street SW westbound,38.02737808,-78.49100494,515400005011009
177,177,-78.49385833741773,38.02870178159844,3093,178,15904,Cherry Avenue at Independence Resource Center,38.02870178,-78.49385834,515400005011007
178,178,-78.48240661639962,38.019741058588636,3094,179,15927,Druid Ave at Avon St,38.01974106,-78.48240662,515400004024000
179,179,-78.49337005568357,38.035251617071374,3095,180,15970,10th Street NW at Page Street Southbound,38.03525162,-78.49337006,515400002021007
180,180,-78.47041320730348,38.077716826828535,3096,181,16009,Rio Rd East at Putt Putt Ln,38.07771683,-78.47041321,510030106012012
181,181,-78.48330688560438,38.026821136009886,3097,182,16013,Crescent Halls,38.02682114,-78.48330688,515400004011006
182,182,-78.47027587979174,38.07391738949472,3098,183,16021,Hillsdale Drive at Walden Court,38.07391739,-78.47027588,510030106013008
183,183,-78.50613403222762,38.04101562550272,3099,184,16362,Emmet Street North at Rothery Road,38.04101563,-78.50613403,515400007004014
184,184,-78.50528717070006,38.04329681446059,3100,185,16370,Emmet Street North at Lambeth (northbound),38.04329681,-78.50528717,515400007002023
185,185,-78.5055770882571,38.043304443663175,3101,186,16389,Emmet St at Massie Rd Southbound,38.04330444,-78.50557709,515400007003019
186,186,-78.49636077802366,38.0558013921835,3102,187,16391,Emmet at Morton Dr,38.05580139,-78.49636078,515400007002006
187,187,-78.49008178744172,38.06150436466487,3103,188,16406,Kmart,38.06150436,-78.49008179,515400008004001
188,188,-78.48726653959993,38.06375122143047,3104,189,16423,Zan Road at Line Drive,38.06375122,-78.48726654,515400008004002
189,189,-78.48593902637766,38.06803894048953,3105,190,16447,Post Office on US29,38.06803894,-78.48593903,515400008004001
190,190,-78.48443603615212,38.0697097770221,3106,191,16452,Seminole Trail at Greenbrier Drive (northbound),38.06970978,-78.48443604,510030106013016
191,191,-78.4723510731407,38.031650542707695,3107,192,16475,East High Street at Locust Avenue,38.03165054,-78.47235107,515400010003011
192,192,-78.47267913770126,38.03141403231207,3108,193,16512,East High Street at 9 1/2 Street NE,38.03141403,-78.47267914,515400003021028
193,193,-78.4923553456601,38.06147766091368,3109,194,16520,Emmet Street North at Hydraulic Rd,38.06147766,-78.49235535,515400008004010
194,194,-78.4910736075397,38.05996704176325,3110,195,16531,Kroger at Hydraulic Road,38.05996704,-78.49107361,515400008004024
195,195,-78.49416351405222,38.058494568463374,3111,196,16554,Emmet Street North at Angus Road (northbound),38.05849457,-78.49416351,515400008004026
196,196,-78.48155212435087,38.069393158137714,3112,197,16577,Greenbrier Drive at Westfield Road (westbound),38.06939316,-78.48155212,510030106013015
197,197,-78.47344207786797,38.074634552774185,3113,198,16583,Mall Drive at Hillsdale Dr southbound,38.07463455,-78.47344208,510030106013001
198,198,-78.47393798846599,38.07727432246215,3114,199,16596,Fashion Square Mall,38.07727432,-78.47393799,510030106013001
199,199,-78.47657012839593,38.07407760538191,3115,200,16614,Hillsdale Drive at JABA southbound,38.07407761,-78.47657013,510030106013001
200,200,-78.47960662764676,38.072082519802365,3116,201,16646,Hillsdale Drive at Branchlands Boulevard (SB),38.07208252,-78.47960663,510030106013015
201,201,-78.4794540412791,38.07201385524661,3117,202,16651,Hillsdale Drive at Branchlands Boulevard (NB),38.07201386,-78.47945404,510030106013009
202,202,-78.48058319086962,38.068683624084976,3118,203,16667,Greenbrier Drive at Hillsdale Drive (eastbound),38.06868362,-78.48058319,510030106013009
203,203,-78.5010604858774,38.05268096925661,3119,204,16680,CVS at Barracks Road Shopping Center,38.05268097,-78.50106049,515400007003009
204,204,-78.50841522180326,38.03517150858968,3120,205,16819,Emmet St & Ruffner Hall,38.03517151,-78.50841522,510030109031000
205,205,-78.50070953345954,38.03226470996843,3121,206,17028,JPA at Pinn Hall,38.03226471,-78.50070953,515400006001003
206,206,-78.46567535335987,38.03858566271745,3122,207,17092,Locust Ave & Watson Ave Southbound,38.03858566,-78.46567535,515400009001012
207,207,-78.50723266509662,38.03841018680106,3123,208,17102,Emmet St at Sprigg Ln,38.03841019,-78.50723267,515400007004012
208,208,-78.47312927199356,38.074825286526064,3124,209,17118,Mall Dr at Royal Ct,38.07482529,-78.47312927,510030106013007
209,209,-78.47023773215187,38.07404327475549,3125,210,17125,Hillsdale Dr at Exeter Ct,38.07404327,-78.47023773,510030106013007
210,210,-78.4665908814915,38.06710433887578,3126,211,17139,Rio Rd East at Greenbrier Dr southbound,38.06710434,-78.46659088,515400008001000
211,211,-78.4664306635083,38.06738662770372,3127,212,17141,Rio Rd east at Greenbrier Dr northbound,38.06738663,-78.46643066,510030106012029
212,212,-78.46059417635857,38.0427131650483,3128,213,17156,Locust Ave near Calhoun St Southbound,38.04271317,-78.46059418,515400009001009
213,213,-78.46168518117285,38.0528450009216,3129,214,17160,East Rio Rd at Treesdale Apt,38.052845,-78.46168518,510030106021034
214,214,-78.46566772484044,38.042915344620425,3130,215,17173,North Ave & Glendale Rd Westbound,38.04291534,-78.46566772,515400009002014
215,215,-78.46873474172709,38.03533554051281,3131,216,17187,Locust Ave at Hazel St Northbound,38.03533554,-78.46873474,515400003021013
216,216,-78.46254730263351,38.06128311190429,3132,217,17194,Rio Rd at CATEC Northbound,38.06128311,-78.4625473,510030106021034
217,217,-78.4630508425585,38.063335417906735,3133,218,17207,East Rio Rd at CATEC,38.06333542,-78.46305084,510030106021034
218,218,-78.44264221226369,38.0227088923483,3134,219,17230,Martha Jefferson Hospital,38.02270889,-78.44264221,510030105003001
219,219,-78.44967651328875,38.03800201374619,3135,220,17282,Stoney Point Road Turnout,38.03800201,-78.44967651,510030105002026
220,220,-78.48214721617835,38.03095626871085,3136,221,17305,2nd Street at Downtown Mall,38.03095627,-78.48214722,515400010001028
221,221,-78.48326873706255,38.055900573603225,3137,222,17314,Grove Road at Meadowbrook Heights (westbound),38.05590057,-78.48326874,515400008003005
222,222,-78.47733306812867,38.02898788495269,3138,223,17333,Downtown Transit Station,38.02898788,-78.47733307,515400010001039
223,223,-78.47399902363607,38.08868408265347,3139,224,17367,Rio Hill Shopping Center at Kroger,38.08868408,-78.47399902,510030108001005
224,224,-78.46603393466701,38.03808593797113,3140,225,17379,Locust Ave & Long St Northbound,38.03808594,-78.46603394,515400003021002
225,225,-78.49547576818149,38.02574157733877,3141,226,17426,9th Street SW at Buford Middle School,38.02574158,-78.49547577,515400005012010
226,226,-78.47021484284812,38.03326034553703,3142,227,17442,Locust Ave & Sycamore St Northbound,38.03326035,-78.47021484,515400003021014
227,227,-78.5009002686027,38.02620315510387,3143,228,17636,Cherry Avenue at Hanover Street (westbound),38.02620316,-78.50090027,515400005012001
228,228,-78.5091018673663,38.02185821542269,3144,229,17689,Cherry Avenue at Rainier Road,38.02185822,-78.50910187,515400005021002
229,229,-78.46121978843158,38.025241852341026,3145,230,17712,Chesapeake Street at 18th Street NE,38.02524185,-78.46121979,515400003022011
230,230,-78.45388031110265,38.0358543403386,3146,231,17720,Stony Point Rd & Winding River Ln,38.03585434,-78.45388031,510030105002020
231,231,-78.47702026336873,38.08491134653358,3147,232,17909,West Rio Rd at Berkmar westbound,38.08491135,-78.47702026,510030108001037
232,232,-78.4840469360403,38.05479812688901,3148,233,18022,Gentry Lane at Walker School (northbound),38.05479813,-78.48404694,515400007001005
233,233,-78.48432922387589,38.05485534729808,3149,234,18033,Gentry Lane at Walker School (southbound),38.05485535,-78.48432922,515400007001003
234,234,-78.50682830748788,38.023509979296996,3150,235,18051,Cherry Avenue at Shamrock Road (eastbound),38.02350998,-78.50682831,515400005021002
235,235,-78.46482849203997,38.04224395731023,3151,236,18203,Sheridan Ave at Calhoun St Northbound,38.04224396,-78.46482849,515400009001009
236,236,-78.51987457207413,38.00548171994724,3152,237,18219,5th Street Ext at Old Lynchburg Rd southbound,38.00548172,-78.51987457,510030113021017
237,237,-78.44608306866402,38.03818893419033,3153,238,18226,Avemore Apartments,38.03818893,-78.44608307,510030105002026
238,238,-78.46116638105094,38.039619446078746,3154,239,18235,St Clair Ave at St George Ave,38.03961945,-78.46116638,515400009001017
239,239,-78.46850585839185,38.043464660303954,3155,240,18242,North Ave & Ashby Pl Westbound,38.04346466,-78.46850586,515400009002016
240,240,-78.4709777823069,38.045711516479614,3156,241,18257,Park St at Beechwood Garden,38.04571152,-78.47097778,515400009002008
241,241,-78.45893096950023,38.041519165705225,3157,242,18261,St Clair Ave at Peartree Ln Northbound,38.04151916,-78.45893097,515400009001007
242,242,-78.46189117450812,38.052364349007156,3158,243,18300,East Rio Rd & Pen Park Ln Northbound,38.05236435,-78.46189117,510030106022011
243,243,-78.44466400138832,38.0247879036444,3159,244,19002,Martha Jefferson Dr at State Farm Blvd,38.02478789999999,-78.444664,510030105003001
244,244,-78.44593048002844,38.03047943088142,3160,245,19018,Abbey Rd at Applebees,38.03047943,-78.44593048,510030105003000
245,245,-78.46273803610106,38.032787322269286,3161,246,19025,East High St at Hazel St Eastbound,38.03278732,-78.46273804,515400003022002
246,246,-78.45496368313323,38.02467727703231,3162,247,19039,Riverside Ave Northbound,38.02467728,-78.45496368,515400003022005
247,247,-78.45634460507387,38.0270233154355,3163,248,19041,Riverside Ave at Riverbluff Cir,38.02702332,-78.4563446,515400003022005
248,248,-78.45512390160003,38.02470016520465,3164,249,19056,Riverside Ave Southbound,38.02470016,-78.4551239,515400003022005
249,249,-78.45825195202666,38.023910521700934,3165,250,19060,Chesapeake Street at Riverview Street Eastbound,38.02391052,-78.45825195,515400003022014
250,250,-78.46594238220766,38.027015686148154,3166,251,19087,Chesapeake Street at Meade Park Eastbound,38.02701569,-78.46594238,515400003022018
251,251,-78.46792602578343,38.0297126777844,3167,252,19094,Little High Street at 12th Street NE Westbound,38.02971268,-78.46792603,515400003021034
252,252,-78.46800994773001,38.02965164145442,3168,253,19104,Little High St at 12th St NE Eastbound,38.02965164,-78.46800995,515400003021033
253,253,-78.47093963648787,38.03066253636235,3169,254,19115,Little High St at 11th St NE Eastbound,38.03066254,-78.47093964,515400003021031
254,254,-78.47071075526048,38.030727387065696,3170,255,19127,Little High St at 11th St NE Westbound,38.03072739,-78.47071075,515400003021026
255,255,-78.4675827018857,38.02142334014185,3171,256,19136,Rives St at Carlton Ave,38.02142334,-78.46758270000002,515400004023001
256,256,-78.46909332335603,38.01935577342196,3172,257,19143,Rives St at Hampton St,38.01935577,-78.46909332,515400004023001
257,257,-78.47145843546592,38.01743698147936,3173,258,19158,Rives St at Rives Park,38.01743698,-78.47145844,515400004023006
258,258,-78.47331237695369,38.0151824952675,3174,259,19162,Monticello Rd at Linden Ave Southbound,38.0151825,-78.47331238,515400004023019
259,259,-78.47406005839574,38.020027161121966,3175,260,19189,Monticello Ave at Blenheim Ave Southbound,38.02002716,-78.47406006,515400004022022
260,260,-78.48074340915997,38.02539062508075,3176,261,19191,Monticello Ave at 6th St SE Westbound,38.02539063,-78.48074341,515400004011002
261,261,-78.48247528077498,38.027282714634644,3177,262,19209,Monticello Ave at 2nd St SE Westbound,38.02728271,-78.48247528,515400010001059
262,262,-78.4852523805166,38.02860260017832,3178,263,19213,Monticello Ave at Ridge St Westbound,38.0286026,-78.48525238,515400010001058
263,263,-78.48532867400019,38.02836227338307,3179,264,19232,Monticello Ave at Ridge St Eastbound,38.02836227,-78.48532867,515400004011006
264,264,-78.49136352548102,38.02227783218887,3180,265,19245,Ridge St at Hartman's Mill Rd Northbound,38.02227783,-78.49136353,515400004012006
265,265,-78.49011230468341,38.02423858575671,3181,266,19250,Ridge St at Barksdale St Southbound,38.02423859,-78.4901123,515400004011018
266,266,-78.49526214656001,38.02568817144258,3182,267,19266,9th St SW at Buford Middle School Northbound,38.02568817,-78.49526215,515400005011014
267,267,-78.49496459948845,38.023990630275726,3183,268,19278,Prospect Ave opposite Blue Ridge Commons,38.02399063,-78.49496459999997,515400005013000
268,268,-78.49672698929072,38.02128219587277,3184,269,19284,Bailey Rd at Prospect Ave Southbound,38.0212822,-78.49672699,515400005013004
269,269,-78.49375915448302,38.0198249823766,3185,270,19297,Ridge St at Brookwood Dr Southbound,38.01982498,-78.49375916,515400004012010
270,270,-78.49599456832266,38.018215179203374,3186,271,19307,Brookwood Dr at 5th St SW Eastbound,38.01821518,-78.49599457,515400004012012
271,271,-78.4958877573793,38.01863861102506,3187,272,19311,Brookwood Dr at 5th St SW Westbound,38.01863861,-78.49588776,515400004012010
272,272,-78.50238037205325,38.01355361987685,3188,273,19324,Willoughby Shopping Center,38.01355362,-78.50238037,515400005025001
273,273,-78.50429534844443,38.01527786335919,3189,274,19330,Harris Rd at Longwood Dr Eastbound,38.01527786,-78.50429535,515400005025001
274,274,-78.50447082565363,38.01548767069081,3190,275,19348,Harris Rd at Lodge Creek Cir,38.01548767,-78.50447083,515400005021002
275,275,-78.50807189834478,38.01591110261013,3191,276,19353,Harris Road at Willard Drive Westbound,38.0159111,-78.5080719,515400005024000
276,276,-78.51135253805651,38.01609420695424,3192,277,19369,Jefferson Prk Ave opposite Azalea Dr,38.01609421,-78.51135254,515400005024001
277,277,-78.51326751770077,38.01873397865294,3193,278,19376,Jefferson Prk Ave opposite Old Lynchburg Rd,38.01873398,-78.51326752,515400005024002
278,278,-78.51425933847084,38.020526885316826,3194,279,19382,Cleveland Ave at Jefferson Prk Ave Eastbound,38.02052689,-78.51425934,515400005024002
279,279,-78.51182556255806,38.0200653082056,3195,280,19395,Cleveland Ave at Woodland Dr Westbound,38.02006531,-78.51182556,515400005022003
280,280,-78.51187133868822,38.020011902504784,3196,281,19400,Cleveland Ave at Woodland Dr Eastbound,38.0200119,-78.51187134,515400005024000
281,281,-78.50341796799394,38.02426147541149,3197,282,19416,Cherry Ave at Rockcreek Rd Southbound,38.02426147,-78.50341797,515400005022000
282,282,-78.49714660582859,38.028541565209814,3198,283,19428,Cherry Ave at 10th St SW Westbound,38.02854156,-78.49714661,515400005012008
283,283,-78.49580383226275,38.02981185948161,3199,284,19437,Roosevelt Brown Blvd at Grove St Southbound,38.02981186,-78.49580383,515400005012006
284,284,-78.49548339752873,38.02985382027612,3200,285,19444,Roosevelt Brown Blvd at Grove St Northbound,38.02985382,-78.4954834,515400005011006
285,285,-78.49319457907214,38.03532028259883,3201,286,19459,10th St NW at Page St northbound,38.03532028,-78.49319458,515400002021011
286,286,-78.49173736588747,38.0382194511291,3202,287,19463,10th St at Grady Ave Northbound,38.03821945,-78.49173737,515400002021009
287,287,-78.48429107601756,38.04116439885558,3203,288,19471,Rose Hill Dr at Madison Ave Southbound,38.0411644,-78.48429108,515400002012001
288,288,-78.48297119155383,38.04933547887777,3204,289,19492,Rose Hill Dr at Greenleaf Park Northbound,38.04933548,-78.48297119,515400007001005
289,289,-78.48317718492294,38.049465179730895,3205,290,19503,Rose Hill Dr at Greenleaf Park Southbound,38.04946518,-78.48317719,515400007001010
290,290,-78.48464202852585,38.05099105915559,3206,291,19519,Del Mar Dr at Oakleaf Ln Southbound,38.05099106,-78.48464203,515400007001010
291,291,-78.47893524129644,38.05400466835577,3207,292,19526,Grove Rd at Concord Dr Eastbound,38.05400467,-78.47893524,515400008002010
292,292,-78.47869110200314,38.05427551294676,3208,293,19535,Concord Dr at Grove Rd Southbound,38.05427551,-78.47869109999998,515400008003007
293,293,-78.47789764321088,38.05717849749134,3209,294,19542,Kenwood Ln at Yorktown Dr northbound,38.0571785,-78.47789764,515400008002002
294,294,-78.47761535703766,38.05760955773357,3210,295,19557,Yorktown Dr at Kenwood Ln Southbound,38.05760956,-78.47761536,515400008003003
295,295,-78.47579193146626,38.06021118105283,3211,296,19561,Yorktown Dr at Bunker Hill Dr Southbound,38.06021118,-78.47579193,515400008003003
296,296,-78.47569274828095,38.060211181498595,3212,297,19574,Yorktown Dr at Bunker Hill Dr Northbound,38.06021118,-78.47569275,515400008002002
297,297,-78.47730255082419,38.06373214685061,3213,298,19588,Brandywine Dr at Yorktown Dr Eastbound,38.06373215,-78.47730255,515400008002000
298,298,-78.47780609129491,38.06447219780436,3214,299,19590,Brandywine Dr at Yorktown Dr Westbound,38.0644722,-78.47780609,515400008003000
299,299,-78.47239684997447,38.06317138631729,3215,300,19601,Greenbrier Dr at Greenbrier Park Eastbound,38.06317139,-78.47239685,515400008001002
300,300,-78.4722824092138,38.063270569532364,3216,301,19617,Greenbrier Dr at Greenbrier Park Westbound,38.06327057,-78.47228241,515400008001004
301,301,-78.46987914985547,38.06255722098045,3217,302,19629,Greenbrier Dr at Greenbrier Elementary Northbound,38.06255722,-78.46987915,515400008001003
302,302,-78.47013091942378,38.06240081780976,3218,303,19638,Greenbrier Dr at Greenbrier Elementary Southbound,38.06240082,-78.47013092,515400008001004
303,303,-78.46031188917438,38.056484222738774,3219,304,19640,East Rio Rd at Penn Park Northbound,38.05648422,-78.46031189,510030106022000
304,304,-78.46052551305773,38.05610275205024,3220,305,19655,East Rio Rd at Waldorf School Rd,38.05610275,-78.46052551,510030106021034
305,305,-78.46891021713786,38.0658378602043,3221,306,19664,Greenbrier Dr at Banbury St Southbound,38.06583786,-78.46891022,515400008001000
306,306,-78.46893310645737,38.06561279226195,3222,307,19672,Greenbrier Dr at Banbury St Northbound,38.06561279,-78.46893311,515400008001003
307,307,-78.46810150180502,38.070213318569,3223,308,19686,East Rio Rd at Wakefield Rd Northbound,38.07021332,-78.4681015,510030106012026
308,308,-78.46835327083099,38.06977462731962,3224,309,19693,East Rio Rd at Wakefield Rd southbound,38.06977463,-78.46835327,510030106013018
309,309,-78.4764556880865,38.073905944090455,3225,310,19705,Hillsdale Dr at JABA northbound,38.07390594,-78.47645569,510030106013009
310,310,-78.49375152695755,38.06567764199525,3226,311,19714,Stonefield Shopping Center,38.06567764,-78.49375153,510030107003011
311,311,-78.4932708742137,38.0639953611231,3227,312,19722,Hydraulic Rd at Swanson Drive Southbound,38.06399536,-78.49327087,515400008004014
312,312,-78.49718475231859,38.06808853226635,3228,313,19733,Hydraulic Rd at Turtle Creek Rd Outbound,38.06808853,-78.49718475,510030108002004
313,313,-78.50440979073306,38.06524276806447,3229,314,19746,Georgetown Rd opposite Inglewood Dr,38.06524277,-78.50440979,510030108004000
314,314,-78.4969558718978,38.0556526187108,3230,315,19751,Emmet St at Earheart St southbound,38.05565262,-78.49695587,515400008004033
315,315,-78.49835205035595,38.05221176070785,3231,316,19767,Barracks Rd at Meadowbrook Rd Northbound,38.05221176,-78.49835205,515400007002010
316,316,-78.49301147394976,38.046970367840146,3232,317,19779,Preston Ave at Rugby Ave Northbound,38.04697037,-78.49301147,515400007001019
317,317,-78.48278808559314,38.08690643248715,3233,318,19808,West Rio Rd across Rehab Center,38.08690643,-78.48278809,510030108001011
318,318,-78.47500610242993,38.08332824679215,3234,319,19812,West Rio Rd at Firestone Pl westbound,38.08332825,-78.4750061,510030108001037
319,319,-78.47749328563226,38.02343749949438,3235,320,19820,Monticello Ave at Rialto St Eastbound,38.0234375,-78.47749329,515400004022015
320,320,-78.47758483985515,38.02368926985249,3236,321,19831,Monticello Ave at Rialto St Westbound,38.02368927,-78.47758484,515400004022009
321,321,-78.48036193748722,38.00682830809247,3237,322,19849,PVCC Stultz Center,38.00682831,-78.48036194,510030113032006
322,322,-78.47289276104,38.019771576699426,3238,323,19854,Monticello Rd at Carlton Rd Northbound,38.01977158,-78.47289276,515400004023006
323,323,-78.4730606070104,38.01797103813597,3239,324,19877,Monticello Rd at Elliott Ave Northbound,38.01797104,-78.47306061,515400004023006
324,324,-78.47318267910713,38.01536941604913,3240,325,19883,Monticello Rd at Linden Ave Northbound,38.01536942,-78.47318268,515400004023013
325,325,-78.4839096074694,38.0451698309374,3241,326,19906,Rose Hill Dr at Rugby Ave Southbound,38.04516983,-78.48390961,515400002011003
326,326,-78.50988769461635,38.033721924631,3242,327,19923,McCormick Rd/Thornton Hall (night stop),38.03372192,-78.5098877,510030109031002
327,327,-78.5174026482871,38.00632858278949,3243,328,19934,5th St Extended at Wahoo Way Southbound,38.00632858,-78.51740265,510030113021015
328,328,-78.49036407476058,38.06822204537079,3244,329,20031,Costco,38.06822205,-78.49036407,510030107003011
329,329,-78.47418975937735,38.090026856140106,3245,330,20049,Berkmar Dr at Woodbrook Dr,38.09002686,-78.47418976,510030108001005
330,330,-78.49878692616974,38.01011276323535,3246,331,20054,5th St Station,38.01011276,-78.49878693,510030113031000
331,331,-78.49242401052643,38.00864410388422,3247,332,20065,5th St Station Parkway at Avon St,38.0086441,-78.49242401,510030113031000
332,332,-78.48679351850275,38.01383972157385,3248,333,20077,Avon St at Avon Ct,38.01383972,-78.48679352,510030113032001
333,333,-78.48487091002141,38.01633071883222,3249,334,20083,Avon St at Belmont Cottage,38.01633072,-78.48487091,515400004024007
334,334,-78.47831726002609,38.049388885251375,3250,335,20096,YMCA,38.04938889,-78.47831726,515400008002010
335,335,-78.45877075124072,38.031509398600726,3251,336,20106,Roses,38.0315094,-78.45877075,510030105003001
336,336,-78.50199127150066,38.01176834166992,3252,337,20110,Bent Creek Rd,38.01176834,-78.50199127,515400004012015
337,337,-78.49747467097555,38.01727676417648,3253,338,20123,5th St at Cleveland Ave,38.01727676,-78.49747467,515400005021002
338,338,-78.48927307123952,38.0603027348736,3254,339,20134,Hillsdale Dr at Hydraulic Rd,38.06030273,-78.48927307,515400008004001
339,339,-78.4832687371743,38.026710509974244,3255,340,20147,Crescent Hall Eastbound,38.02671051,-78.48326874,515400004011004
340,340,-78.50511932407677,38.037403107156116,3256,341,21000,1705 University Ave (Temporary Stop),38.03740311,-78.50511932,510030109032003
